{
    "100112": {
        "vdisk_name": "NFS:3:0:576",
        "parent_vdisk_id": "99662",
        "vdisk_size": "8589934592",
        "iscsi_target_name": "iqn.2010-06.com.nutanix:vmdisk-4e284263-3021-4ecd-94e9-2c84c4d85bfd",
        "iscsi_lun": "0",
        "container_id": "625",
        "creation_time_usecs": "1563509213247411",
        "mutability_state": "kImmutable",
        "vdisk_creator_loc": "12465076",
        "nfs_file_name": "4e284263-3021-4ecd-94e9-2c84c4d85bfd",
        "may_be_parent": "true",
        "parent_nfs_file_name_hint": "504cfb7f-8311-42b0-b1c4-9a5648bb3733",
        "scsi_name_identifier": "naa.6506b8df104befb84c746bef5f8bfafb",
        "never_hosted": "false",
        "snapshot_draining": "false",
        "parent_draining": "false",
        "clone_parent_draining": "false",
        "has_complete_data": "true",
        "clone_source_vdisk_id": "99662",
        "vdisk_uuid": "07fd7592-b99e-4bfe-8abd-80073a476f26",
        "chain_id": "d92f1747-94c1-48fb-b723-4023722afa37",
        "parent_chain_id": "525579c0-408c-4a1a-907a-f8c52b34b441",
        "vdisk_snapshot_uuid": "9f63f8bc-4620-4034-981a-ebefaf5393a6",
        "last_modification_time_usecs": "1563509232409360"
    },
    "100130": {
        "vdisk_name": "NFS:3:0:578",
        "parent_vdisk_id": "99662",
        "vdisk_size": "4398046511104",
        "container_id": "625",
        "creation_time_usecs": "1563509213511930",
        "mutability_state": "kImmutable",
        "vdisk_creator_loc": "12466709",
        "nfs_file_name": "48ab6266-e159-400a-9d67-a2fff3206967",
        "parent_nfs_file_name_hint": "504cfb7f-8311-42b0-b1c4-9a5648bb3733",
        "never_hosted": "true",
        "parent_draining": "true",
        "clone_parent_draining": "true",
        "has_complete_data": "true",
        "clone_source_vdisk_id": "99662",
        "vdisk_uuid": "dc9b37df-f328-40c7-99e3-adee3befcc3d",
        "chain_id": "723a87cd-4e65-4e48-b9d4-d83be22a5881",
        "parent_chain_id": "525579c0-408c-4a1a-907a-f8c52b34b441",
        "vdisk_snapshot_uuid": "f7e977ae-d970-4877-8e57-4952caa5e45e",
        "last_modification_time_usecs": "1563509213533550"
    },
    "10095583": {
        "vdisk_name": "NFS:2:0:996",
        "parent_vdisk_id": "8158007",
        "vdisk_size": "17179869184",
        "container_id": "12",
        "to_remove": "true",
        "creation_time_usecs": "1572684051320387",
        "mutability_state": "kImmutableSnapshot",
        "closest_named_ancestor": "NFS:2:0:979",
        "vdisk_creator_loc": "4375849963",
        "nfs_file_name": "b4cd7464-c9a8-44c3-8712-baed1b47b39b",
        "may_be_parent": "true",
        "parent_nfs_file_name_hint": "b4cd7464-c9a8-44c3-8712-baed1b47b39b",
        "scsi_name_identifier": "naa.6506b8d98ea1a636ea4b1256a5015678",
        "never_hosted": "false",
        "parent_draining": "false",
        "vdisk_uuid": "3cffbeb7-343c-49ae-a9bf-93f7324b2863",
        "chain_id": "45e1e2da-ac34-4f56-9056-6d03a1ed95f0",
        "last_modification_time_usecs": "1573712147922012"
    },
    "10095604": {
        "vdisk_name": "NFS:4611686018443814755",
        "parent_vdisk_id": "8158007",
        "vdisk_size": "17179869184",
        "container_id": "12",
        "creation_time_usecs": "1573453580540330",
        "mutability_state": "kImmutableSnapshot",
        "closest_named_ancestor": "NFS:2:0:979",
        "vdisk_creator_loc": "4375851277",
        "nfs_file_name": "6f5247d4-05c4-403b-baa3-770026d14408",
        "may_be_parent": "true",
        "parent_nfs_file_name_hint": "6f5247d4-05c4-403b-baa3-770026d14408",
        "scsi_name_identifier": "naa.6506b8d883550ce10effd5067f63ba1b",
        "never_hosted": "false",
        "parent_draining": "false",
        "has_complete_data": "true",
        "clone_source_vdisk_id": "8245257",
        "vdisk_uuid": "ab385425-ac49-47aa-b516-a31647853668",
        "chain_id": "8ca227db-e2b9-4aee-94b2-8b31af0eb926",
        "parent_chain_id": "45e1e2da-ac34-4f56-9056-6d03a1ed95f0",
        "vdisk_snapshot_uuid": "af4eba3c-558d-4c33-a9df-08701f0e3a21",
        "last_modification_time_usecs": "1575113375244394"
    },
    "10109": {
        "vdisk_name": "NFS:4:0:359",
        "parent_vdisk_id": "1891",
        "vdisk_size": "3283720192",
        "iscsi_target_name": "iqn.2010-06.com.nutanix:vmdisk-892bbc5e-5ae5-4e1b-97cb-ff484b0938f1",
        "iscsi_lun": "0",
        "container_id": "1244",
        "creation_time_usecs": "1563483132866718",
        "mutability_state": "kImmutable",
        "vdisk_creator_loc": "430545",
        "nfs_file_name": "892bbc5e-5ae5-4e1b-97cb-ff484b0938f1",
        "may_be_parent": "true",
        "parent_nfs_file_name_hint": "903cddb5-ffa4-4764-b574-deecc92c4ec9",
        "scsi_name_identifier": "naa.6506b8dd07cdf438f027f99413eed80f",
        "never_hosted": "false",
        "snapshot_draining": "false",
        "parent_draining": "false",
        "clone_parent_draining": "false",
        "has_complete_data": "true",
        "clone_source_vdisk_id": "1891",
        "vdisk_uuid": "7de248bf-9bd9-4998-a950-5ccd7099f7e9",
        "chain_id": "6f18cf55-3f1c-458a-b3dd-c46237389942",
        "parent_chain_id": "814b89ba-e7f1-4061-95f9-4435ceb15d3e",
        "vdisk_snapshot_uuid": "05f064dd-10c6-4250-8a6a-ac16094f9ad7",
        "last_modification_time_usecs": "1563483288089869"
    },
    "10127": {
        "vdisk_name": "NFS:4:0:362",
        "parent_vdisk_id": "1891",
        "vdisk_size": "4398046511104",
        "container_id": "1244",
        "creation_time_usecs": "1563483133081761",
        "mutability_state": "kImmutable",
        "vdisk_creator_loc": "430638",
        "nfs_file_name": "0f25a977-9ea6-4fa8-8064-7a1090e51470",
        "parent_nfs_file_name_hint": "903cddb5-ffa4-4764-b574-deecc92c4ec9",
        "never_hosted": "true",
        "parent_draining": "true",
        "clone_parent_draining": "true",
        "has_complete_data": "true",
        "clone_source_vdisk_id": "1891",
        "vdisk_uuid": "400cdb49-17a0-44e5-9bde-944405bcb556",
        "chain_id": "30d892ac-eb9c-4969-a83b-95a55ed8a7cf",
        "parent_chain_id": "814b89ba-e7f1-4061-95f9-4435ceb15d3e",
        "vdisk_snapshot_uuid": "e539e771-eb96-4432-93fd-75e855ad4903",
        "last_modification_time_usecs": "1563483133107621"
    },
    "10148": {
        "vdisk_name": "NFS:4:0:365",
        "parent_vdisk_id": "9629",
        "vdisk_size": "48695296",
        "iscsi_target_name": "iqn.2010-06.com.nutanix:vmdisk-89751be8-c6a4-40c4-91e0-6fa028a825f5",
        "iscsi_lun": "0",
        "container_id": "1244",
        "creation_time_usecs": "1563483210148400",
        "mutability_state": "kImmutable",
        "vdisk_creator_loc": "436851",
        "nfs_file_name": "89751be8-c6a4-40c4-91e0-6fa028a825f5",
        "may_be_parent": "true",
        "parent_nfs_file_name_hint": "0807e785-4f78-45da-9379-f953f1b79c8b",
        "scsi_name_identifier": "naa.6506b8df182dba871ad883a023236c9e",
        "never_hosted": "false",
        "snapshot_draining": "false",
        "parent_draining": "false",
        "clone_parent_draining": "false",
        "has_complete_data": "true",
        "clone_source_vdisk_id": "9629",
        "vdisk_uuid": "3f146d01-a61c-4858-9b62-fba74a2d39ad",
        "chain_id": "dda55120-18dc-467f-b364-0795a0dbcae5",
        "parent_chain_id": "376c07c3-1b0d-43bc-8240-11a550978aae",
        "vdisk_snapshot_uuid": "e0c80d24-cc42-4d4a-bbe7-eda4cdfcb32c",
        "last_modification_time_usecs": "1563483288368549"
    },
    "10166": {
        "vdisk_name": "NFS:4:0:367",
        "parent_vdisk_id": "9629",
        "vdisk_size": "4398046511104",
        "container_id": "1244",
        "creation_time_usecs": "1563483210361863",
        "mutability_state": "kImmutable",
        "vdisk_creator_loc": "436982",
        "nfs_file_name": "ff924de3-c58d-4e03-aebf-78ee09140fc5",
        "parent_nfs_file_name_hint": "0807e785-4f78-45da-9379-f953f1b79c8b",
        "never_hosted": "false",
        "snapshot_draining": "false",
        "parent_draining": "false",
        "clone_parent_draining": "false",
        "has_complete_data": "true",
        "clone_source_vdisk_id": "9629",
        "vdisk_uuid": "e3c00298-158d-4559-bc1f-7bb18fabaf8f",
        "chain_id": "71258361-0383-43e8-90c9-b108f1dc7c3d",
        "parent_chain_id": "376c07c3-1b0d-43bc-8240-11a550978aae",
        "vdisk_snapshot_uuid": "6787c7df-05fa-4886-a34e-8a9f7a53b68f",
        "last_modification_time_usecs": "1574160459980582"
    },
    "105523": {
        "vdisk_name": "NFS:8:0:463",
        "vdisk_size": "106954752",
        "container_id": "107509",
        "creation_time_usecs": "1563512970858046",
        "mutability_state": "kImmutableSnapshot",
        "avoid_vblock_copy_when_leaf": "true",
        "vdisk_creator_loc": "15121363",
        "nfs_file_name": "2bb0d747-4f24-4140-a153-86e293d12c43",
        "may_be_parent": "true",
        "parent_nfs_file_name_hint": "2bb0d747-4f24-4140-a153-86e293d12c43",
        "scsi_name_identifier": "naa.6506b8db36fd1c2581ec19568a99bf85",
        "has_complete_data": "true",
        "vdisk_uuid": "c66e54dc-3d32-4a04-adcc-37f1ea087301",
        "chain_id": "58bf39c8-ff29-4fd2-9dbd-d0b041780a0a",
        "vdisk_snapshot_uuid": "d45fabd6-aa65-474d-983b-ef638c269ce9",
        "last_modification_time_usecs": "1573117074171930"
    },
    "107527": {
        "vdisk_name": "NFS:4:0:768",
        "parent_vdisk_id": "16161",
        "vdisk_size": "581959680",
        "container_id": "1244",
        "creation_time_usecs": "1563512970631215",
        "mutability_state": "kImmutableSnapshot",
        "closest_named_ancestor": "NFS:4:0:402",
        "avoid_vblock_copy_when_leaf": "true",
        "vdisk_creator_loc": "15121219",
        "nfs_file_name": "d06bcbd7-626c-4207-9728-06d093241d29",
        "may_be_parent": "true",
        "parent_nfs_file_name_hint": "d06bcbd7-626c-4207-9728-06d093241d29",
        "scsi_name_identifier": "naa.6506b8d583e7f23b708616f139561f1f",
        "never_hosted": "false",
        "parent_draining": "false",
        "has_complete_data": "true",
        "clone_source_vdisk_id": "16161",
        "vdisk_uuid": "7eda433a-44d7-4050-87df-87a0baefd2e4",
        "chain_id": "f88d5879-9f42-4891-8ea0-0aa945e4e5a1",
        "parent_chain_id": "a2173a95-0c72-481d-8c2a-592f4fae5998",
        "vdisk_snapshot_uuid": "b85e3c62-3d9b-4e05-872b-50070a1cb2e1",
        "last_modification_time_usecs": "1573117074189048"
    },
    "107549": {
        "vdisk_name": "NFS:3:0:589",
        "vdisk_size": "4398046511104",
        "container_id": "625",
        "to_remove": "true",
        "creation_time_usecs": "1563513475602930",
        "vdisk_creator_loc": "15474837",
        "nfs_file_name": "7b80d719-75c2-44a7-acd7-80304c6ff8aa.tmp",
        "may_be_parent": "true",
        "snapshot_draining": "false",
        "vdisk_uuid": "41e03126-68b2-4f16-ad27-be286b6b806e",
        "chain_id": "dcbaae4a-634e-4b9c-be12-77446abdfd50",
        "last_modification_time_usecs": "1563513558870858"
    },
    "107665": {
        "vdisk_name": "NFS:3:0:591",
        "parent_vdisk_id": "107549",
        "vdisk_size": "538968064",
        "iscsi_target_name": "iqn.2010-06.com.nutanix:vmdisk-444e91f1-8048-4053-b494-6efb119c20fd",
        "iscsi_lun": "0",
        "container_id": "625",
        "creation_time_usecs": "1563513554666095",
        "mutability_state": "kImmutable",
        "vdisk_creator_loc": "15862092",
        "nfs_file_name": "444e91f1-8048-4053-b494-6efb119c20fd",
        "may_be_parent": "true",
        "parent_nfs_file_name_hint": "7b80d719-75c2-44a7-acd7-80304c6ff8aa.tmp",
        "scsi_name_identifier": "naa.6506b8db757fb9ab14bece33a12a7ade",
        "never_hosted": "false",
        "snapshot_draining": "false",
        "parent_draining": "false",
        "clone_parent_draining": "false",
        "has_complete_data": "true",
        "clone_source_vdisk_id": "107549",
        "vdisk_uuid": "ebd23ca5-ca1c-4b74-aa94-2db897c846e1",
        "chain_id": "de74b6b0-65fa-474b-931d-0970988c104c",
        "parent_chain_id": "dcbaae4a-634e-4b9c-be12-77446abdfd50",
        "vdisk_snapshot_uuid": "aec21fc8-9a7b-42b4-890f-2c70485e5cfb",
        "last_modification_time_usecs": "1563513592852731"
    },
    "107683": {
        "vdisk_name": "NFS:3:0:593",
        "parent_vdisk_id": "107549",
        "vdisk_size": "4398046511104",
        "container_id": "625",
        "creation_time_usecs": "1563513554883319",
        "mutability_state": "kImmutable",
        "vdisk_creator_loc": "15862372",
        "nfs_file_name": "7ae2a992-3f25-4758-8438-60c0d8e5b1cc",
        "parent_nfs_file_name_hint": "7b80d719-75c2-44a7-acd7-80304c6ff8aa.tmp",
        "never_hosted": "true",
        "parent_draining": "true",
        "clone_parent_draining": "true",
        "has_complete_data": "true",
        "clone_source_vdisk_id": "107549",
        "vdisk_uuid": "d40b09f8-5e28-43ec-9c58-86cec5043f53",
        "chain_id": "b269b3f2-741e-470f-884d-7843941b8bb3",
        "parent_chain_id": "dcbaae4a-634e-4b9c-be12-77446abdfd50",
        "vdisk_snapshot_uuid": "788b7855-21cd-444b-8c44-7e33aead08c8",
        "last_modification_time_usecs": "1563513554904811"
    },
    "108327": {
        "vdisk_name": "$NTNX$-$CURATOR$-$CONTAINERVDISK$-$107509$108327$",
        "vdisk_size": "0",
        "container_id": "107509",
        "to_remove": "true",
        "creation_time_usecs": "1563513684",
        "mutability_state": "kImmutable",
        "last_modification_time_usecs": "1563513684321166"
    },
    "108328": {
        "vdisk_name": "$NTNX$-$CURATOR$-$CONTAINERVDISK$-$107509$108328$",
        "vdisk_size": "0",
        "container_id": "107509",
        "to_remove": "true",
        "creation_time_usecs": "1563513684",
        "mutability_state": "kImmutable",
        "last_modification_time_usecs": "1563513684321166"
    },
    "108329": {
        "vdisk_name": "$NTNX$-$CURATOR$-$CONTAINERVDISK$-$107509$108329$",
        "vdisk_size": "0",
        "container_id": "107509",
        "to_remove": "true",
        "creation_time_usecs": "1563513684",
        "mutability_state": "kImmutable",
        "last_modification_time_usecs": "1563513684321166"
    },
    "108330": {
        "vdisk_name": "$NTNX$-$CURATOR$-$CONTAINERVDISK$-$107509$108330$",
        "vdisk_size": "0",
        "container_id": "107509",
        "to_remove": "true",
        "creation_time_usecs": "1563513684",
        "mutability_state": "kImmutable",
        "last_modification_time_usecs": "1563513684321166"
    },
    "108331": {
        "vdisk_name": "$NTNX$-$CURATOR$-$CONTAINERVDISK$-$107509$108331$",
        "vdisk_size": "0",
        "container_id": "107509",
        "to_remove": "true",
        "creation_time_usecs": "1563513684",
        "mutability_state": "kImmutable",
        "last_modification_time_usecs": "1563513684321166"
    },
    "108332": {
        "vdisk_name": "$NTNX$-$CURATOR$-$CONTAINERVDISK$-$107509$108332$",
        "vdisk_size": "0",
        "container_id": "107509",
        "to_remove": "true",
        "creation_time_usecs": "1563513684",
        "mutability_state": "kImmutable",
        "last_modification_time_usecs": "1563513684321166"
    },
    "108333": {
        "vdisk_name": "$NTNX$-$CURATOR$-$CONTAINERVDISK$-$107509$108333$",
        "vdisk_size": "0",
        "container_id": "107509",
        "to_remove": "true",
        "creation_time_usecs": "1563513684",
        "mutability_state": "kImmutable",
        "last_modification_time_usecs": "1563513684321166"
    },
    "108334": {
        "vdisk_name": "$NTNX$-$CURATOR$-$CHAINVDISK$-$6047f91d-0306-457c-946b-2293189b9354$1242$",
        "vdisk_size": "0",
        "container_id": "1242",
        "creation_time_usecs": "1563546864",
        "mutability_state": "kImmutable",
        "vdisk_uuid": "f794d44c-817d-4ae7-b385-fb2c7fb86593",
        "chain_id": "6047f91d-0306-457c-946b-2293189b9354",
        "last_modification_time_usecs": "1563550590543047"
    },
    "108336": {
        "vdisk_name": "$NTNX$-$CURATOR$-$CHAINVDISK$-$7b10a5da-7e47-4492-8f87-f05ee22732fd$90469$",
        "vdisk_size": "0",
        "container_id": "90469",
        "creation_time_usecs": "1563686067",
        "mutability_state": "kImmutable",
        "vdisk_uuid": "d4084973-f699-441f-9a1d-00706bf04ca2",
        "chain_id": "7b10a5da-7e47-4492-8f87-f05ee22732fd",
        "last_modification_time_usecs": "1563686079795276"
    },
    "108482": {
        "vdisk_name": "NFS:5:0:493",
        "vdisk_size": "42949672960",
        "container_id": "1242",
        "to_remove": "true",
        "creation_time_usecs": "1563486988791291",
        "mutability_state": "kImmutableSnapshot",
        "closest_named_ancestor": "NFS:5:0:461",
        "vdisk_creator_loc": "16130091",
        "nfs_file_name": "85276f4d-df5c-4f2b-bd8d-c1386e1f78ea",
        "may_be_parent": "true",
        "parent_nfs_file_name_hint": "85276f4d-df5c-4f2b-bd8d-c1386e1f78ea",
        "scsi_name_identifier": "naa.6506b8d7472af973ada9c5a6c9a6b2de",
        "never_hosted": "false",
        "snapshot_draining": "false",
        "parent_draining": "false",
        "clone_parent_draining": "false",
        "clone_source_vdisk_id": "15996",
        "vdisk_uuid": "04bc3a55-9886-4f95-aedc-2b68b85cb81f",
        "chain_id": "6047f91d-0306-457c-946b-2293189b9354",
        "parent_chain_id": "95e46e6b-d3c1-4d7b-aad8-764a486d3aa6",
        "last_modification_time_usecs": "1563535655455503"
    },
    "108652": {
        "vdisk_name": "NFS:5:0:607",
        "vdisk_size": "53687091200",
        "container_id": "1242",
        "to_remove": "true",
        "creation_time_usecs": "1563486967090646",
        "mutability_state": "kImmutableSnapshot",
        "closest_named_ancestor": "NFS:5:0:477",
        "vdisk_creator_loc": "16175775",
        "nfs_file_name": "7489cbf6-a403-4ad8-b506-963256ea2a18",
        "may_be_parent": "true",
        "parent_nfs_file_name_hint": "7489cbf6-a403-4ad8-b506-963256ea2a18",
        "scsi_name_identifier": "naa.6506b8dc48dbffe4db17dc912ba60d10",
        "never_hosted": "false",
        "snapshot_draining": "false",
        "parent_draining": "false",
        "clone_parent_draining": "false",
        "clone_source_vdisk_id": "15951",
        "vdisk_uuid": "708f4557-155b-4132-8cc2-b17e33cee1c5",
        "chain_id": "0e5ccf87-3f9b-4df1-a1eb-a9c5491634da",
        "parent_chain_id": "ec17851c-dd9b-40bf-a9bf-5adcc01ffeb5",
        "last_modification_time_usecs": "1563774151306203"
    },
    "108686": {
        "vdisk_name": "NFS:5:0:488",
        "parent_vdisk_id": "23224",
        "vdisk_size": "53687091200",
        "iscsi_target_name": "iqn.2010-06.com.nutanix:vmdisk-a93e892f-d5dc-4ef9-b0bc-7f5aedbeca0f",
        "iscsi_lun": "0",
        "container_id": "1242",
        "creation_time_usecs": "1563514098082027",
        "closest_named_ancestor": "NFS:5:0:477",
        "vdisk_creator_loc": "16176698",
        "nfs_file_name": "a93e892f-d5dc-4ef9-b0bc-7f5aedbeca0f",
        "parent_nfs_file_name_hint": "7489cbf6-a403-4ad8-b506-963256ea2a18",
        "scsi_name_identifier": "naa.6506b8dff9f62638e716739ed3328105",
        "never_hosted": "false",
        "snapshot_draining": "false",
        "parent_draining": "false",
        "clone_parent_draining": "false",
        "clone_source_vdisk_id": "23224",
        "vdisk_uuid": "17cb9698-a17c-4459-b74c-36eb24464f85",
        "chain_id": "bc26378d-7e6a-4822-903a-8283e524c443",
        "parent_chain_id": "0e5ccf87-3f9b-4df1-a1eb-a9c5491634da",
        "last_modification_time_usecs": "1563514131157464"
    },
    "108759": {
        "vdisk_name": "NFS:5:0:504",
        "parent_vdisk_id": "108482",
        "vdisk_size": "48318382080",
        "iscsi_target_name": "iqn.2010-06.com.nutanix:vmdisk-4314a17b-724c-4020-8eb9-8c84a1bebc40",
        "iscsi_lun": "0",
        "container_id": "1242",
        "creation_time_usecs": "1563514145476062",
        "closest_named_ancestor": "NFS:5:0:493",
        "vdisk_creator_loc": "16259621",
        "nfs_file_name": "4314a17b-724c-4020-8eb9-8c84a1bebc40",
        "parent_nfs_file_name_hint": "85276f4d-df5c-4f2b-bd8d-c1386e1f78ea",
        "scsi_name_identifier": "naa.6506b8dd61f9a18d7cab5a8883eada98",
        "never_hosted": "false",
        "snapshot_draining": "false",
        "parent_draining": "false",
        "clone_parent_draining": "false",
        "clone_source_vdisk_id": "108482",
        "vdisk_uuid": "6e55c30e-59c8-4c9e-8c60-f02f75225b41",
        "chain_id": "2cf3a881-3cf5-4473-a840-fb4b4594b411",
        "parent_chain_id": "6047f91d-0306-457c-946b-2293189b9354",
        "last_modification_time_usecs": "1563514229215986"
    },
    "11586321": {
        "vdisk_name": "NFS:4611686018443833033",
        "vdisk_size": "85899345920",
        "container_id": "1242",
        "creation_time_usecs": "1573484311177697",
        "mutability_state": "kImmutableSnapshot",
        "avoid_vblock_copy_when_leaf": "true",
        "vdisk_creator_loc": "2191927642",
        "nfs_file_name": "e318ee42-9040-4b98-b33d-04c666bfa463",
        "may_be_parent": "true",
        "parent_nfs_file_name_hint": "e318ee42-9040-4b98-b33d-04c666bfa463",
        "scsi_name_identifier": "naa.6506b8da911c543f6f56de08844c775b",
        "has_complete_data": "true",
        "vdisk_uuid": "79f9533d-d143-4e7d-9220-ba8eae720651",
        "chain_id": "d9b165e7-7c16-41d8-b711-bd0d85bc2397",
        "vdisk_snapshot_uuid": "7c38f45c-9dca-40df-85c4-c7df2c860188",
        "last_modification_time_usecs": "1578554137698532"
    },
    "12794": {
        "vdisk_name": "NFS:4:0:374",
        "parent_vdisk_id": "9655",
        "vdisk_size": "5893869568",
        "iscsi_target_name": "iqn.2010-06.com.nutanix:vmdisk-2211b714-5b46-48eb-a0e3-a4a63982f882",
        "iscsi_lun": "0",
        "container_id": "1244",
        "creation_time_usecs": "1563484337365253",
        "mutability_state": "kImmutable",
        "vdisk_creator_loc": "629799",
        "nfs_file_name": "2211b714-5b46-48eb-a0e3-a4a63982f882",
        "may_be_parent": "true",
        "parent_nfs_file_name_hint": "1538b58e-fd55-4330-8a5c-6da76a2e0f9b",
        "scsi_name_identifier": "naa.6506b8d224b3391a08c95343f94c80ad",
        "never_hosted": "false",
        "snapshot_draining": "false",
        "parent_draining": "false",
        "clone_parent_draining": "false",
        "has_complete_data": "true",
        "clone_source_vdisk_id": "9655",
        "vdisk_uuid": "6e248c70-ce16-4e43-907a-330444c814f7",
        "chain_id": "f7669b89-8b6a-49c3-8a6c-2337629a9d92",
        "parent_chain_id": "f52f2a41-4da2-42e9-8b40-f85d1e9eea10",
        "vdisk_snapshot_uuid": "335cc290-450c-4a63-a086-765aaac50f71",
        "last_modification_time_usecs": "1563484810048334"
    },
    "12812": {
        "vdisk_name": "NFS:4:0:376",
        "parent_vdisk_id": "9655",
        "vdisk_size": "4398046511104",
        "container_id": "1244",
        "creation_time_usecs": "1563484337602474",
        "mutability_state": "kImmutable",
        "vdisk_creator_loc": "629889",
        "nfs_file_name": "95e09168-5872-4839-84a5-1e4d4187cddf",
        "parent_nfs_file_name_hint": "1538b58e-fd55-4330-8a5c-6da76a2e0f9b",
        "never_hosted": "true",
        "parent_draining": "true",
        "clone_parent_draining": "true",
        "has_complete_data": "true",
        "clone_source_vdisk_id": "9655",
        "vdisk_uuid": "3c214bf8-fb4e-41c5-8bba-35a702ecd44d",
        "chain_id": "46a0a158-524a-4044-9134-a566d8b116ea",
        "parent_chain_id": "f52f2a41-4da2-42e9-8b40-f85d1e9eea10",
        "vdisk_snapshot_uuid": "4e3a7bc1-9e3c-4c9f-85bd-b2aef21d1f6b",
        "last_modification_time_usecs": "1563484337620698"
    },
    "1292140": {
        "vdisk_name": "NFS:2:0:509",
        "vdisk_size": "10737418240",
        "iscsi_target_name": "iqn.2010-06.com.nutanix:vg-meetup44-0a047dae-e08a-4e6d-b75e-75ea5241d6ba",
        "iscsi_lun": "0",
        "container_id": "12",
        "creation_time_usecs": "1565003052207146",
        "vdisk_creator_loc": "3941755868",
        "nfs_file_name": "7c75f1d7-dcd5-4cf8-8075-e6cc32151ae5",
        "iscsi_multipath_protocol": "kMpio",
        "scsi_name_identifier": "naa.6506b8dddc5cd3b5b17bc3770b4e9e58",
        "vdisk_uuid": "409a2492-65e9-48ad-987b-05c0567b38f6",
        "chain_id": "7541c9f5-f0de-4f81-a59d-ec66aced559e",
        "last_modification_time_usecs": "1565003052219178"
    },
    "1292141": {
        "vdisk_name": "NFS:2:0:510",
        "vdisk_size": "21474836480",
        "iscsi_target_name": "iqn.2010-06.com.nutanix:vg-meetup44-0a047dae-e08a-4e6d-b75e-75ea5241d6ba",
        "iscsi_lun": "1",
        "container_id": "12",
        "creation_time_usecs": "1565003052232881",
        "vdisk_creator_loc": "3941755892",
        "nfs_file_name": "1034c712-98b0-4a5a-8692-e726b3b4d16d",
        "iscsi_multipath_protocol": "kMpio",
        "scsi_name_identifier": "naa.6506b8dddc5cd3b5b309096de934a69d",
        "vdisk_uuid": "b0e9fda5-c86a-4d42-b10f-159007206dbc",
        "chain_id": "a177e9a3-fceb-4831-bf10-469f6952f6cb",
        "last_modification_time_usecs": "1565003052243905"
    },
    "1293092": {
        "vdisk_name": "NFS:3:0:1625",
        "parent_vdisk_id": "957716",
        "vdisk_size": "8589934592",
        "iscsi_target_name": "iqn.2010-06.com.nutanix:vmdisk-6ecf83bd-b3c5-41db-8d1f-58fcc5837aa1",
        "iscsi_lun": "0",
        "container_id": "625",
        "creation_time_usecs": "1565004163440981",
        "closest_named_ancestor": "NFS:3:0:1249",
        "vdisk_creator_loc": "3945986643",
        "nfs_file_name": "6ecf83bd-b3c5-41db-8d1f-58fcc5837aa1",
        "parent_nfs_file_name_hint": "1c6ee197-ad56-4749-a6e5-55e802426c41",
        "scsi_name_identifier": "naa.6506b8d20ecba1f40611511fb52c211e",
        "never_hosted": "false",
        "parent_draining": "false",
        "clone_source_vdisk_id": "957716",
        "vdisk_uuid": "6e4b35fb-8ee4-4f38-8340-9092e98eb04d",
        "chain_id": "7ec863a4-30d6-4d14-b430-57d3bbf159fd",
        "parent_chain_id": "3052c56d-5911-4f3c-baa4-612f24b11455",
        "last_modification_time_usecs": "1565004167161627"
    },
    "1293109": {
        "vdisk_name": "NFS:3:0:1627",
        "parent_vdisk_id": "957716",
        "vdisk_size": "8589934592",
        "iscsi_target_name": "iqn.2010-06.com.nutanix:vmdisk-633b6dcf-0220-47b3-80e4-0b5b7e2b7c11",
        "iscsi_lun": "0",
        "container_id": "625",
        "creation_time_usecs": "1565004164219872",
        "closest_named_ancestor": "NFS:3:0:1249",
        "vdisk_creator_loc": "3945993795",
        "nfs_file_name": "633b6dcf-0220-47b3-80e4-0b5b7e2b7c11",
        "parent_nfs_file_name_hint": "1c6ee197-ad56-4749-a6e5-55e802426c41",
        "scsi_name_identifier": "naa.6506b8d1e7026c4e67d8950840b6dae2",
        "never_hosted": "false",
        "parent_draining": "false",
        "clone_source_vdisk_id": "957716",
        "vdisk_uuid": "be94cd1a-c36c-4739-b57b-24d340101472",
        "chain_id": "9af77bb4-e1e8-4734-8615-0dae28d52334",
        "parent_chain_id": "3052c56d-5911-4f3c-baa4-612f24b11455",
        "last_modification_time_usecs": "1565004168454038"
    },
    "1293125": {
        "vdisk_name": "NFS:3:0:1629",
        "parent_vdisk_id": "957716",
        "vdisk_size": "8589934592",
        "iscsi_target_name": "iqn.2010-06.com.nutanix:vmdisk-1198bccb-0437-4923-bd71-7201be3cc46b",
        "iscsi_lun": "0",
        "container_id": "625",
        "creation_time_usecs": "1565004164680561",
        "closest_named_ancestor": "NFS:3:0:1249",
        "vdisk_creator_loc": "3945997607",
        "nfs_file_name": "1198bccb-0437-4923-bd71-7201be3cc46b",
        "parent_nfs_file_name_hint": "1c6ee197-ad56-4749-a6e5-55e802426c41",
        "scsi_name_identifier": "naa.6506b8dd2bfc984303da9d41a61629e7",
        "never_hosted": "false",
        "parent_draining": "false",
        "clone_source_vdisk_id": "957716",
        "vdisk_uuid": "3556ea4f-c721-4292-8926-e820dcba6971",
        "chain_id": "fd15c5e1-7f88-4722-8c97-799b7c9959e7",
        "parent_chain_id": "3052c56d-5911-4f3c-baa4-612f24b11455",
        "last_modification_time_usecs": "1565004168552698"
    },
    "1293141": {
        "vdisk_name": "NFS:3:0:1631",
        "parent_vdisk_id": "957716",
        "vdisk_size": "8589934592",
        "iscsi_target_name": "iqn.2010-06.com.nutanix:vmdisk-5c560b61-ee2e-48a8-b3bb-5e75dd602545",
        "iscsi_lun": "0",
        "container_id": "625",
        "creation_time_usecs": "1565004165078636",
        "closest_named_ancestor": "NFS:3:0:1249",
        "vdisk_creator_loc": "3946000563",
        "nfs_file_name": "5c560b61-ee2e-48a8-b3bb-5e75dd602545",
        "parent_nfs_file_name_hint": "1c6ee197-ad56-4749-a6e5-55e802426c41",
        "scsi_name_identifier": "naa.6506b8dde06c35c649e1f6102540bda0",
        "never_hosted": "false",
        "parent_draining": "false",
        "clone_source_vdisk_id": "957716",
        "vdisk_uuid": "ff318d06-d73b-4ce3-bec5-d93dade28b81",
        "chain_id": "7cf2b007-6f7b-46d0-9526-00234bbdcd19",
        "parent_chain_id": "3052c56d-5911-4f3c-baa4-612f24b11455",
        "last_modification_time_usecs": "1565004168829032"
    },
    "13415517": {
        "vdisk_name": "NFS:4611686018440801003",
        "parent_vdisk_id": "9503014",
        "vdisk_size": "4398046511104",
        "container_id": "12",
        "creation_time_usecs": "1573527362088061",
        "mutability_state": "kImmutable",
        "closest_named_ancestor": "NFS:4611686018436790737",
        "avoid_vblock_copy_when_leaf": "true",
        "vdisk_creator_loc": "2289796924",
        "nfs_file_name": "714dfe07-7145-4e50-b2f1-5c02522ee3e9",
        "originating_cluster_id": "56498",
        "originating_cluster_incarnation_id": "1562591225653465",
        "originating_vdisk_id": "4312244",
        "parent_nfs_file_name_hint": "714dfe07-7145-4e50-b2f1-5c02522ee3e9",
        "never_hosted": "false",
        "has_complete_data": "true",
        "vdisk_uuid": "0bc8db9f-6afa-4f78-afde-dda934d367ce",
        "chain_id": "d39586e4-fed4-47d2-acff-9164d74793e8",
        "vdisk_snapshot_uuid": "ecfcfb7a-22dd-45cf-a90c-6c7fa3649792",
        "last_modification_time_usecs": "1573527362190607"
    },
    "13589086": {
        "vdisk_name": "NFS:3:0:5867",
        "parent_vdisk_id": "6949513",
        "vdisk_size": "21474836480",
        "iscsi_target_name": "iqn.2010-06.com.nutanix:vmdisk-70aa28ed-751b-41bc-98b5-e490c4f7275f",
        "iscsi_lun": "0",
        "container_id": "625",
        "creation_time_usecs": "1573543229031467",
        "closest_named_ancestor": "NFS:3:0:5646",
        "vdisk_creator_loc": "4672572426",
        "nfs_file_name": "70aa28ed-751b-41bc-98b5-e490c4f7275f",
        "parent_nfs_file_name_hint": "b358b5e8-a2eb-42c5-a46c-9b8633ba2dd5",
        "scsi_name_identifier": "naa.6506b8d2a0b693861059949d82cdda10",
        "never_hosted": "false",
        "parent_draining": "false",
        "clone_source_vdisk_id": "6949513",
        "vdisk_uuid": "8d58d9df-3062-44d3-8e66-21692391efca",
        "chain_id": "27afa72a-80f1-4210-bdb5-3a6b0e26b4d3",
        "parent_chain_id": "063578f4-18a0-4cf5-a710-cb7b66fdd6ee",
        "last_modification_time_usecs": "1573543249700554"
    },
    "1360198": {
        "vdisk_name": "NFS:2:0:511",
        "vdisk_size": "107374182400",
        "iscsi_target_name": "iqn.2010-06.com.nutanix:vmdisk-96c0b5f3-6782-449d-9676-572a54827fe1",
        "iscsi_lun": "0",
        "container_id": "12",
        "creation_time_usecs": "1565076905196100",
        "vdisk_creator_loc": "4206012722",
        "nfs_file_name": "96c0b5f3-6782-449d-9676-572a54827fe1",
        "scsi_name_identifier": "naa.6506b8de02c61fff345979ace1cff91c",
        "vdisk_uuid": "db98c075-2fd3-42ed-87d3-82d1d6067ba7",
        "chain_id": "f3a2c2fe-fce5-4e4d-bd99-4fbeca8ce90f",
        "last_modification_time_usecs": "1565076905205869"
    },
    "1360504": {
        "vdisk_name": "NFS:4:0:564",
        "parent_vdisk_id": "14234",
        "vdisk_size": "5019654144",
        "iscsi_target_name": "iqn.2010-06.com.nutanix:vmdisk-f72b62f0-065e-4770-8714-ba7ea9be42b3",
        "iscsi_lun": "0",
        "container_id": "1244",
        "creation_time_usecs": "1565077155825393",
        "mutability_state": "kImmutable",
        "closest_named_ancestor": "NFS:4:0:379",
        "vdisk_creator_loc": "4207708864",
        "nfs_file_name": "f72b62f0-065e-4770-8714-ba7ea9be42b3",
        "parent_nfs_file_name_hint": "54552199-502d-4735-ad1e-8cc699ec9bd7",
        "scsi_name_identifier": "naa.6506b8d56cfe1117b88d4ef044e77c05",
        "never_hosted": "false",
        "parent_draining": "false",
        "has_complete_data": "true",
        "clone_source_vdisk_id": "14234",
        "vdisk_uuid": "f1513178-aa39-4c14-97d3-224f300139a9",
        "chain_id": "c2c037d1-e549-4f62-8aa6-28488d5c63e2",
        "parent_chain_id": "d9fa1ff5-cf65-43ed-91ab-63fc111ce529",
        "vdisk_snapshot_uuid": "6f741982-4206-44c6-a3a4-7eae405e7462",
        "last_modification_time_usecs": "1565077157282829"
    },
    "13657106": {
        "vdisk_name": "NFS:3:0:5650",
        "parent_vdisk_id": "6951001",
        "vdisk_size": "21474836480",
        "iscsi_target_name": "iqn.2010-06.com.nutanix:vmdisk-ed16aff7-90d7-455b-bb4f-6bcac2f01047",
        "iscsi_lun": "0",
        "container_id": "625",
        "creation_time_usecs": "1570069624634310",
        "closest_named_ancestor": "NFS:3:0:5872",
        "vdisk_creator_loc": "4679150218",
        "nfs_file_name": "ed16aff7-90d7-455b-bb4f-6bcac2f01047",
        "parent_nfs_file_name_hint": "b358b5e8-a2eb-42c5-a46c-9b8633ba2dd5",
        "scsi_name_identifier": "naa.6506b8d8ce0292c0508761d415f93390",
        "never_hosted": "false",
        "snapshot_draining": "false",
        "parent_draining": "false",
        "clone_parent_draining": "false",
        "clone_source_vdisk_id": "6949513",
        "vdisk_uuid": "4db84339-05c5-44d1-9af6-0012a9457497",
        "chain_id": "abdf3b74-ca5f-42f0-8014-72e14b9bb712",
        "parent_chain_id": "063578f4-18a0-4cf5-a710-cb7b66fdd6ee",
        "last_modification_time_usecs": "1578460549429719"
    },
    "13657130": {
        "vdisk_name": "NFS:3:0:5884",
        "parent_vdisk_id": "6951001",
        "vdisk_size": "21474836480",
        "iscsi_target_name": "iqn.2010-06.com.nutanix:vmdisk-e5b28318-c73d-4b48-bc50-4918a9734cce",
        "iscsi_lun": "0",
        "container_id": "625",
        "creation_time_usecs": "1573545151491171",
        "closest_named_ancestor": "NFS:3:0:5872",
        "vdisk_creator_loc": "4679154514",
        "nfs_file_name": "e5b28318-c73d-4b48-bc50-4918a9734cce",
        "parent_nfs_file_name_hint": "ed16aff7-90d7-455b-bb4f-6bcac2f01047",
        "scsi_name_identifier": "naa.6506b8d8be69d44f5af30447cec4bc6d",
        "never_hosted": "false",
        "snapshot_draining": "false",
        "parent_draining": "false",
        "clone_parent_draining": "false",
        "clone_source_vdisk_id": "6951001",
        "vdisk_uuid": "23d8fb5c-c30b-48da-8921-623dfea12120",
        "chain_id": "26ae7d1f-6cb7-49cf-9ebe-801595242199",
        "parent_chain_id": "abdf3b74-ca5f-42f0-8014-72e14b9bb712",
        "last_modification_time_usecs": "1573545190288357"
    },
    "13657153": {
        "vdisk_name": "NFS:3:0:5885",
        "parent_vdisk_id": "6951001",
        "vdisk_size": "21474836480",
        "iscsi_target_name": "iqn.2010-06.com.nutanix:vmdisk-92d5a847-e98d-414b-acc8-ff3431bc8187",
        "iscsi_lun": "0",
        "container_id": "625",
        "creation_time_usecs": "1573545151739430",
        "closest_named_ancestor": "NFS:3:0:5872",
        "vdisk_creator_loc": "4679154713",
        "nfs_file_name": "92d5a847-e98d-414b-acc8-ff3431bc8187",
        "parent_nfs_file_name_hint": "ed16aff7-90d7-455b-bb4f-6bcac2f01047",
        "scsi_name_identifier": "naa.6506b8d36db81f98fbab1d2252de126d",
        "never_hosted": "false",
        "snapshot_draining": "false",
        "parent_draining": "false",
        "clone_parent_draining": "false",
        "clone_source_vdisk_id": "6951001",
        "vdisk_uuid": "13074730-8858-4ad3-9e72-ab73d31a557c",
        "chain_id": "8167f2c4-105c-4cd3-9089-2c87b693ef9e",
        "parent_chain_id": "abdf3b74-ca5f-42f0-8014-72e14b9bb712",
        "last_modification_time_usecs": "1573545193620148"
    },
    "1396124": {
        "vdisk_name": "NFS:1:0:641",
        "vdisk_size": "4398046511104",
        "container_id": "13",
        "creation_time_usecs": "1565087728537392",
        "vdisk_creator_loc": "2192406177",
        "nfs_file_name": "nutanix-file_analytics-el7.6-release-2.0.0-b47d3afdada7c237fe24440ce6241a5e0975d331.qcow2",
        "vdisk_uuid": "ec5fffcb-d8fe-4fbc-b9be-d351c46780d8",
        "chain_id": "970b96fd-3edf-4591-a04f-82edf68c7a1f",
        "last_modification_time_usecs": "1565087728539438"
    },
    "1400537": {
        "vdisk_name": "$NTNX$-$CURATOR$-$CONTAINERVDISK$-$1394364$1400537$",
        "vdisk_size": "0",
        "container_id": "1394364",
        "to_remove": "true",
        "creation_time_usecs": "1565088703",
        "mutability_state": "kImmutable",
        "last_modification_time_usecs": "1565088703035953"
    },
    "1400545": {
        "vdisk_name": "$NTNX$-$CURATOR$-$CHAINVDISK$-$bf3b690c-5da3-4beb-99d1-76d20fa05fdf$90469$",
        "vdisk_size": "0",
        "container_id": "90469",
        "creation_time_usecs": "1565514534",
        "mutability_state": "kImmutable",
        "vdisk_uuid": "8c5bb292-f75e-4cc2-934c-f79c229de9a5",
        "chain_id": "bf3b690c-5da3-4beb-99d1-76d20fa05fdf",
        "last_modification_time_usecs": "1565514535600095"
    },
    "1400546": {
        "vdisk_name": "$NTNX$-$CURATOR$-$CHAINVDISK$-$d60e43cd-89a8-46b5-af42-592777059f3e$90469$",
        "vdisk_size": "0",
        "container_id": "90469",
        "creation_time_usecs": "1565514535",
        "mutability_state": "kImmutable",
        "vdisk_uuid": "ef75c0a3-e566-48df-8fcc-16ccb198beb0",
        "chain_id": "d60e43cd-89a8-46b5-af42-592777059f3e",
        "last_modification_time_usecs": "1565514535600095"
    },
    "14116": {
        "vdisk_name": "NFS:4:0:377",
        "vdisk_size": "4398046511104",
        "container_id": "1244",
        "to_remove": "true",
        "creation_time_usecs": "1563484376571170",
        "vdisk_creator_loc": "678588",
        "nfs_file_name": "077b582d-9211-4491-9d26-309a1902aff8",
        "may_be_parent": "true",
        "snapshot_draining": "false",
        "vdisk_uuid": "e8962868-b137-4d12-924a-3ad382bbfc29",
        "chain_id": "4ddf029f-66d0-4ec0-ad43-3e232f709e06",
        "last_modification_time_usecs": "1563484465920481"
    },
    "14234": {
        "vdisk_name": "NFS:4:0:379",
        "parent_vdisk_id": "14116",
        "vdisk_size": "5019654144",
        "iscsi_target_name": "iqn.2010-06.com.nutanix:vmdisk-54552199-502d-4735-ad1e-8cc699ec9bd7",
        "iscsi_lun": "0",
        "container_id": "1244",
        "creation_time_usecs": "1563484445470396",
        "mutability_state": "kImmutable",
        "vdisk_creator_loc": "734188",
        "nfs_file_name": "54552199-502d-4735-ad1e-8cc699ec9bd7",
        "may_be_parent": "true",
        "parent_nfs_file_name_hint": "077b582d-9211-4491-9d26-309a1902aff8",
        "scsi_name_identifier": "naa.6506b8d24d354e005a2963d0e2163276",
        "never_hosted": "false",
        "snapshot_draining": "false",
        "parent_draining": "false",
        "clone_parent_draining": "false",
        "has_complete_data": "true",
        "clone_source_vdisk_id": "14116",
        "vdisk_uuid": "a702ed4a-082f-4280-9a76-1fce22e65fb9",
        "chain_id": "d9fa1ff5-cf65-43ed-91ab-63fc111ce529",
        "parent_chain_id": "4ddf029f-66d0-4ec0-ad43-3e232f709e06",
        "vdisk_snapshot_uuid": "a8ee9e05-0117-454c-884c-d31d8a345c23",
        "last_modification_time_usecs": "1563484866283492"
    },
    "14252": {
        "vdisk_name": "NFS:4:0:381",
        "parent_vdisk_id": "14116",
        "vdisk_size": "4398046511104",
        "container_id": "1244",
        "creation_time_usecs": "1563484445699495",
        "mutability_state": "kImmutable",
        "vdisk_creator_loc": "734370",
        "nfs_file_name": "22d751d3-6bf2-47e7-bfee-18e0d82425fe",
        "parent_nfs_file_name_hint": "077b582d-9211-4491-9d26-309a1902aff8",
        "never_hosted": "true",
        "parent_draining": "true",
        "clone_parent_draining": "true",
        "has_complete_data": "true",
        "clone_source_vdisk_id": "14116",
        "vdisk_uuid": "070fdd5e-2374-44a2-aa28-d3e6e7024fde",
        "chain_id": "38625c7a-972f-49e0-9a21-6db00c6ce238",
        "parent_chain_id": "4ddf029f-66d0-4ec0-ad43-3e232f709e06",
        "vdisk_snapshot_uuid": "a0d21d05-03a9-44ec-b36f-6e093d1a5aec",
        "last_modification_time_usecs": "1563484445718417"
    },
    "14542481": {
        "vdisk_size": "0",
        "container_id": "625",
        "to_remove": "true",
        "creation_time_usecs": "1573634403320334",
        "mutability_state": "kImmutable",
        "vdisk_creator_loc": "9449974269",
        "originating_cluster_id": "56498",
        "originating_cluster_incarnation_id": "1562591225653465",
        "originating_vdisk_id": "333183",
        "shell_vdisk": "true",
        "chain_id": "36728ef6-b1e0-4e45-b0de-957669548af8",
        "last_modification_time_usecs": "1573634469493739"
    },
    "14611773": {
        "vdisk_name": "$NTNX$-$CURATOR$-$CHAINVDISK$-$36adcd8e-d015-479a-836b-08acea1ac9ec$625$",
        "vdisk_size": "0",
        "container_id": "625",
        "creation_time_usecs": "1573682527",
        "mutability_state": "kImmutable",
        "vdisk_uuid": "444eaf6d-c322-4455-a45b-c0ec358da63a",
        "chain_id": "36adcd8e-d015-479a-836b-08acea1ac9ec",
        "last_modification_time_usecs": "1573682533306840"
    },
    "14611775": {
        "vdisk_name": "$NTNX$-$CURATOR$-$CHAINVDISK$-$f4bb9480-a542-46d7-895b-5fe7ba735640$12$",
        "vdisk_size": "0",
        "container_id": "12",
        "creation_time_usecs": "1574344410",
        "mutability_state": "kImmutable",
        "vdisk_uuid": "475046c9-e909-4e5d-b2ad-1e272c87d086",
        "chain_id": "f4bb9480-a542-46d7-895b-5fe7ba735640",
        "last_modification_time_usecs": "1574348172130729"
    },
    "14611776": {
        "vdisk_name": "$NTNX$-$CURATOR$-$CHAINVDISK$-$c4456863-4635-44a8-bd31-99a81f47a450$625$",
        "vdisk_size": "0",
        "container_id": "625",
        "creation_time_usecs": "1574895973",
        "mutability_state": "kImmutable",
        "vdisk_uuid": "7c683578-5ccd-49a4-9d64-e56f3166f9e2",
        "chain_id": "c4456863-4635-44a8-bd31-99a81f47a450",
        "last_modification_time_usecs": "1574895979248381"
    },
    "14611777": {
        "vdisk_name": "$NTNX$-$CURATOR$-$CHAINVDISK$-$75b76b49-2096-4f6f-8f67-64536d9bc8cd$625$",
        "vdisk_size": "0",
        "container_id": "625",
        "creation_time_usecs": "1574895973",
        "mutability_state": "kImmutable",
        "vdisk_uuid": "3301b32d-4724-419c-b473-b6666440fcc4",
        "chain_id": "75b76b49-2096-4f6f-8f67-64536d9bc8cd",
        "last_modification_time_usecs": "1574895979248381"
    },
    "14611778": {
        "vdisk_name": "$NTNX$-$CURATOR$-$CHAINVDISK$-$a35ed126-c058-4b9d-aeda-a4c002ea25e4$625$",
        "vdisk_size": "0",
        "container_id": "625",
        "creation_time_usecs": "1574895973",
        "mutability_state": "kImmutable",
        "vdisk_uuid": "41fe09bf-be95-4e76-b800-527164d8f845",
        "chain_id": "a35ed126-c058-4b9d-aeda-a4c002ea25e4",
        "last_modification_time_usecs": "1574895979248381"
    },
    "14611779": {
        "vdisk_name": "$NTNX$-$CURATOR$-$CONTAINERVDISK$-$6071431$14611779$",
        "vdisk_size": "0",
        "container_id": "6071431",
        "to_remove": "true",
        "creation_time_usecs": "1575526508",
        "mutability_state": "kImmutable",
        "last_modification_time_usecs": "1575526508135113"
    },
    "14611780": {
        "vdisk_name": "$NTNX$-$CURATOR$-$CONTAINERVDISK$-$6071431$14611780$",
        "vdisk_size": "0",
        "container_id": "6071431",
        "to_remove": "true",
        "creation_time_usecs": "1575526508",
        "mutability_state": "kImmutable",
        "last_modification_time_usecs": "1575526508135113"
    },
    "14637453": {
        "vdisk_name": "NFS:2:0:876",
        "parent_vdisk_id": "10095583",
        "vdisk_size": "17179869184",
        "iscsi_target_name": "iqn.2010-06.com.nutanix:vmdisk-b4cd7464-c9a8-44c3-8712-baed1b47b39b",
        "iscsi_lun": "0",
        "container_id": "12",
        "creation_time_usecs": "1572684051320387",
        "closest_named_ancestor": "NFS:2:0:996",
        "vdisk_creator_loc": "5296652195",
        "nfs_file_name": "b4cd7464-c9a8-44c3-8712-baed1b47b39b",
        "scsi_name_identifier": "naa.6506b8d98ea1a636ea4b1256a5015678",
        "never_hosted": "false",
        "parent_draining": "false",
        "vdisk_uuid": "19cc7394-5b19-473f-883b-b7df988a2e3e",
        "chain_id": "45e1e2da-ac34-4f56-9056-6d03a1ed95f0",
        "last_modification_time_usecs": "1573705580697910"
    },
    "14637474": {
        "vdisk_name": "NFS:2:0:1007",
        "parent_vdisk_id": "10095583",
        "vdisk_size": "17179869184",
        "iscsi_target_name": "iqn.2010-06.com.nutanix:vmdisk-1e55336b-2c41-4fdf-9296-a5d9cba0abb7",
        "iscsi_lun": "0",
        "container_id": "12",
        "creation_time_usecs": "1573704570358899",
        "closest_named_ancestor": "NFS:2:0:996",
        "vdisk_creator_loc": "5296652862",
        "nfs_file_name": "1e55336b-2c41-4fdf-9296-a5d9cba0abb7",
        "parent_nfs_file_name_hint": "b4cd7464-c9a8-44c3-8712-baed1b47b39b",
        "scsi_name_identifier": "naa.6506b8dd813bf4fcef16790bdf212ae2",
        "never_hosted": "false",
        "parent_draining": "false",
        "clone_source_vdisk_id": "10095583",
        "vdisk_uuid": "87976409-5a13-4482-b5cf-37f6dbb4e80e",
        "chain_id": "6c4bf9ce-f2e4-4bab-adf1-cff40b5a316d",
        "parent_chain_id": "45e1e2da-ac34-4f56-9056-6d03a1ed95f0",
        "last_modification_time_usecs": "1573704608223726"
    },
    "1481533": {
        "vdisk_name": "NFS:2:0:514",
        "vdisk_size": "4398046511104",
        "container_id": "12",
        "to_remove": "true",
        "creation_time_usecs": "1565159211515720",
        "vdisk_creator_loc": "4516291198",
        "nfs_file_name": "f7529570-8b3f-459f-8442-e7cab8da38d3",
        "may_be_parent": "true",
        "snapshot_draining": "false",
        "vdisk_uuid": "f59f85ea-c172-4a86-af1b-d5bf7beef166",
        "chain_id": "248a61f2-2f76-4c26-ab20-a36841809e9d",
        "last_modification_time_usecs": "1565159330406772"
    },
    "1483493": {
        "vdisk_name": "NFS:2:0:519",
        "parent_vdisk_id": "1481533",
        "vdisk_size": "53687091200",
        "iscsi_target_name": "iqn.2010-06.com.nutanix:vmdisk-2c609a1e-4dda-440f-81bd-89b14ea74d74",
        "iscsi_lun": "0",
        "container_id": "12",
        "creation_time_usecs": "1565159304994830",
        "mutability_state": "kImmutable",
        "vdisk_creator_loc": "4517149613",
        "nfs_file_name": "2c609a1e-4dda-440f-81bd-89b14ea74d74",
        "may_be_parent": "true",
        "parent_nfs_file_name_hint": "f7529570-8b3f-459f-8442-e7cab8da38d3",
        "scsi_name_identifier": "naa.6506b8d2eb5d07887227ce6f9967d170",
        "never_hosted": "false",
        "snapshot_draining": "false",
        "parent_draining": "false",
        "clone_parent_draining": "false",
        "has_complete_data": "true",
        "clone_source_vdisk_id": "1481533",
        "vdisk_uuid": "604a5e3a-efe6-47f8-b1a6-50b426fab00b",
        "chain_id": "a012708e-94b0-462c-bf0d-b62a5818719f",
        "parent_chain_id": "248a61f2-2f76-4c26-ab20-a36841809e9d",
        "vdisk_snapshot_uuid": "00445e79-8274-42b3-9181-c8195329597f",
        "last_modification_time_usecs": "1565160257844269"
    },
    "1483511": {
        "vdisk_name": "NFS:2:0:522",
        "parent_vdisk_id": "1481533",
        "vdisk_size": "4398046511104",
        "container_id": "12",
        "creation_time_usecs": "1565159305276805",
        "mutability_state": "kImmutable",
        "vdisk_creator_loc": "4517150539",
        "nfs_file_name": "26e6bf5e-8c20-4001-bb31-134a6dd7a6ab",
        "parent_nfs_file_name_hint": "f7529570-8b3f-459f-8442-e7cab8da38d3",
        "never_hosted": "true",
        "parent_draining": "true",
        "clone_parent_draining": "true",
        "has_complete_data": "true",
        "clone_source_vdisk_id": "1481533",
        "vdisk_uuid": "147f4d2c-fe89-4265-9ca1-283b3dfc90ce",
        "chain_id": "2ee89009-cb70-45a9-8a1a-bd37627c574f",
        "parent_chain_id": "248a61f2-2f76-4c26-ab20-a36841809e9d",
        "vdisk_snapshot_uuid": "dc2069ee-2756-4d7c-9599-f94cbf11cefa",
        "last_modification_time_usecs": "1565159305299672"
    },
    "15266047": {
        "vdisk_size": "0",
        "container_id": "12",
        "to_remove": "true",
        "creation_time_usecs": "1574215264808216",
        "mutability_state": "kImmutable",
        "vdisk_creator_loc": "7493658459",
        "originating_cluster_id": "56498",
        "originating_cluster_incarnation_id": "1562591225653465",
        "originating_vdisk_id": "174505",
        "shell_vdisk": "true",
        "chain_id": "77469422-2ac5-40af-bc64-64a3aa922586",
        "last_modification_time_usecs": "1574215360699638"
    },
    "15266049": {
        "vdisk_size": "0",
        "container_id": "12",
        "to_remove": "true",
        "creation_time_usecs": "1574215264808638",
        "mutability_state": "kImmutable",
        "vdisk_creator_loc": "7493658459",
        "originating_cluster_id": "56498",
        "originating_cluster_incarnation_id": "1562591225653465",
        "originating_vdisk_id": "181230",
        "shell_vdisk": "true",
        "chain_id": "77469422-2ac5-40af-bc64-64a3aa922586",
        "last_modification_time_usecs": "1574215360699638"
    },
    "15274436": {
        "vdisk_name": "NFS:4611686018442660673",
        "vdisk_size": "0",
        "container_id": "12",
        "to_remove": "true",
        "creation_time_usecs": "1574217601893881",
        "mutability_state": "kImmutable",
        "vdisk_creator_loc": "3428359420",
        "nfs_file_name": "127ec263-2490-4519-a4b9-a117748933ec",
        "may_be_parent": "true",
        "originating_cluster_id": "56498",
        "originating_cluster_incarnation_id": "1562591225653465",
        "originating_vdisk_id": "4828802",
        "shell_vdisk": "true",
        "vdisk_uuid": "56b098ec-03e8-450a-8c6f-1a2bef8e3975",
        "chain_id": "16de9211-7e7e-4ec6-88ba-fb2be8f3026e",
        "last_modification_time_usecs": "1574259945709795"
    },
    "15274867": {
        "vdisk_size": "0",
        "container_id": "12",
        "to_remove": "true",
        "creation_time_usecs": "1574217602416690",
        "mutability_state": "kImmutable",
        "vdisk_creator_loc": "10456348574",
        "originating_cluster_id": "56498",
        "originating_cluster_incarnation_id": "1562591225653465",
        "originating_vdisk_id": "1533888",
        "shell_vdisk": "true",
        "chain_id": "16de9211-7e7e-4ec6-88ba-fb2be8f3026e",
        "last_modification_time_usecs": "1574218007291380"
    },
    "15274887": {
        "vdisk_size": "0",
        "container_id": "12",
        "to_remove": "true",
        "creation_time_usecs": "1574217602467961",
        "mutability_state": "kImmutable",
        "vdisk_creator_loc": "10456348574",
        "originating_cluster_id": "56498",
        "originating_cluster_incarnation_id": "1562591225653465",
        "originating_vdisk_id": "4614120",
        "shell_vdisk": "true",
        "last_modification_time_usecs": "1574218007291380"
    },
    "15274928": {
        "vdisk_size": "0",
        "container_id": "12",
        "to_remove": "true",
        "creation_time_usecs": "1574217602938669",
        "mutability_state": "kImmutable",
        "vdisk_creator_loc": "10456348574",
        "originating_cluster_id": "56498",
        "originating_cluster_incarnation_id": "1562591225653465",
        "originating_vdisk_id": "4744290",
        "shell_vdisk": "true",
        "last_modification_time_usecs": "1574218007291380"
    },
    "15274930": {
        "vdisk_size": "0",
        "container_id": "12",
        "to_remove": "true",
        "creation_time_usecs": "1574217602940512",
        "mutability_state": "kImmutable",
        "vdisk_creator_loc": "10456348574",
        "originating_cluster_id": "56498",
        "originating_cluster_incarnation_id": "1562591225653465",
        "originating_vdisk_id": "4798053",
        "shell_vdisk": "true",
        "chain_id": "16de9211-7e7e-4ec6-88ba-fb2be8f3026e",
        "last_modification_time_usecs": "1574218007291380"
    },
    "15274931": {
        "vdisk_size": "0",
        "container_id": "12",
        "to_remove": "true",
        "creation_time_usecs": "1574217602940892",
        "mutability_state": "kImmutable",
        "vdisk_creator_loc": "10456348574",
        "originating_cluster_id": "56498",
        "originating_cluster_incarnation_id": "1562591225653465",
        "originating_vdisk_id": "4548784",
        "shell_vdisk": "true",
        "last_modification_time_usecs": "1574218007291380"
    },
    "15274932": {
        "vdisk_size": "0",
        "container_id": "12",
        "to_remove": "true",
        "creation_time_usecs": "1574217602941129",
        "mutability_state": "kImmutable",
        "vdisk_creator_loc": "10456348574",
        "originating_cluster_id": "56498",
        "originating_cluster_incarnation_id": "1562591225653465",
        "originating_vdisk_id": "4814334",
        "shell_vdisk": "true",
        "chain_id": "16de9211-7e7e-4ec6-88ba-fb2be8f3026e",
        "last_modification_time_usecs": "1574218007291380"
    },
    "15274934": {
        "vdisk_size": "0",
        "container_id": "12",
        "to_remove": "true",
        "creation_time_usecs": "1574217603016254",
        "mutability_state": "kImmutable",
        "vdisk_creator_loc": "10456348574",
        "originating_cluster_id": "56498",
        "originating_cluster_incarnation_id": "1562591225653465",
        "originating_vdisk_id": "4674154",
        "shell_vdisk": "true",
        "last_modification_time_usecs": "1574218007291380"
    },
    "15274935": {
        "vdisk_size": "0",
        "container_id": "12",
        "to_remove": "true",
        "creation_time_usecs": "1574217603017847",
        "mutability_state": "kImmutable",
        "vdisk_creator_loc": "10456348574",
        "originating_cluster_id": "56498",
        "originating_cluster_incarnation_id": "1562591225653465",
        "originating_vdisk_id": "4666828",
        "shell_vdisk": "true",
        "last_modification_time_usecs": "1574218007291380"
    },
    "15274936": {
        "vdisk_size": "0",
        "container_id": "12",
        "to_remove": "true",
        "creation_time_usecs": "1574217603017946",
        "mutability_state": "kImmutable",
        "vdisk_creator_loc": "10456348574",
        "originating_cluster_id": "56498",
        "originating_cluster_incarnation_id": "1562591225653465",
        "originating_vdisk_id": "4721017",
        "shell_vdisk": "true",
        "last_modification_time_usecs": "1574218007291380"
    },
    "15274938": {
        "vdisk_size": "0",
        "container_id": "12",
        "to_remove": "true",
        "creation_time_usecs": "1574217603018068",
        "mutability_state": "kImmutable",
        "vdisk_creator_loc": "10456348574",
        "originating_cluster_id": "56498",
        "originating_cluster_incarnation_id": "1562591225653465",
        "originating_vdisk_id": "4821805",
        "shell_vdisk": "true",
        "chain_id": "16de9211-7e7e-4ec6-88ba-fb2be8f3026e",
        "last_modification_time_usecs": "1574218007291380"
    },
    "15274957": {
        "vdisk_size": "0",
        "container_id": "12",
        "to_remove": "true",
        "creation_time_usecs": "1574217603041266",
        "mutability_state": "kImmutable",
        "vdisk_creator_loc": "10456348574",
        "originating_cluster_id": "56498",
        "originating_cluster_incarnation_id": "1562591225653465",
        "originating_vdisk_id": "4824359",
        "shell_vdisk": "true",
        "chain_id": "16de9211-7e7e-4ec6-88ba-fb2be8f3026e",
        "last_modification_time_usecs": "1574218007291380"
    },
    "15274958": {
        "vdisk_size": "0",
        "container_id": "12",
        "to_remove": "true",
        "creation_time_usecs": "1574217603300558",
        "mutability_state": "kImmutable",
        "vdisk_creator_loc": "10456348574",
        "originating_cluster_id": "56498",
        "originating_cluster_incarnation_id": "1562591225653465",
        "originating_vdisk_id": "4789288",
        "shell_vdisk": "true",
        "last_modification_time_usecs": "1574218007291380"
    },
    "15274959": {
        "vdisk_size": "0",
        "container_id": "12",
        "to_remove": "true",
        "creation_time_usecs": "1574217603302467",
        "mutability_state": "kImmutable",
        "vdisk_creator_loc": "10456348574",
        "originating_cluster_id": "56498",
        "originating_cluster_incarnation_id": "1562591225653465",
        "originating_vdisk_id": "4812154",
        "shell_vdisk": "true",
        "chain_id": "16de9211-7e7e-4ec6-88ba-fb2be8f3026e",
        "last_modification_time_usecs": "1574218007291380"
    },
    "15274960": {
        "vdisk_size": "0",
        "container_id": "12",
        "to_remove": "true",
        "creation_time_usecs": "1574217603302574",
        "mutability_state": "kImmutable",
        "vdisk_creator_loc": "10456348574",
        "originating_cluster_id": "56498",
        "originating_cluster_incarnation_id": "1562591225653465",
        "originating_vdisk_id": "4809879",
        "shell_vdisk": "true",
        "chain_id": "16de9211-7e7e-4ec6-88ba-fb2be8f3026e",
        "last_modification_time_usecs": "1574218007291380"
    },
    "15274971": {
        "vdisk_size": "0",
        "container_id": "12",
        "to_remove": "true",
        "creation_time_usecs": "1574217603622511",
        "mutability_state": "kImmutable",
        "vdisk_creator_loc": "10456348574",
        "originating_cluster_id": "56498",
        "originating_cluster_incarnation_id": "1562591225653465",
        "originating_vdisk_id": "4767491",
        "shell_vdisk": "true",
        "last_modification_time_usecs": "1574218007291380"
    },
    "15274982": {
        "vdisk_size": "0",
        "container_id": "12",
        "to_remove": "true",
        "creation_time_usecs": "1574217604108443",
        "mutability_state": "kImmutable",
        "vdisk_creator_loc": "10456348574",
        "originating_cluster_id": "56498",
        "originating_cluster_incarnation_id": "1562591225653465",
        "originating_vdisk_id": "4765074",
        "shell_vdisk": "true",
        "last_modification_time_usecs": "1574218007291380"
    },
    "15274983": {
        "vdisk_size": "0",
        "container_id": "12",
        "to_remove": "true",
        "creation_time_usecs": "1574217604108758",
        "mutability_state": "kImmutable",
        "vdisk_creator_loc": "10456348574",
        "originating_cluster_id": "56498",
        "originating_cluster_incarnation_id": "1562591225653465",
        "originating_vdisk_id": "4723381",
        "shell_vdisk": "true",
        "last_modification_time_usecs": "1574218007291380"
    },
    "15274984": {
        "vdisk_size": "0",
        "container_id": "12",
        "to_remove": "true",
        "creation_time_usecs": "1574217604109090",
        "mutability_state": "kImmutable",
        "vdisk_creator_loc": "10456348574",
        "originating_cluster_id": "56498",
        "originating_cluster_incarnation_id": "1562591225653465",
        "originating_vdisk_id": "4728243",
        "shell_vdisk": "true",
        "last_modification_time_usecs": "1574218007291380"
    },
